[
    {
        "name": "Marsiglia",
        "lat": 43.2965,
        "lng": 5.3811
    },
    {
        "name": "Massafra",
        "lat": 40.58618,
        "lng": 17.11635
    },
    {
        "name": "Ravenna",
        "lat": 44.41344,
        "lng": 12.20121
    },
    {
        "name": "Trieste",
        "lat": 45.64953,
        "lng": 13.77678
    },
    {
        "name": "Conversano",
        "lat": 40.96836,
        "lng": 17.11329
    },
    {
        "name": "Poznań",
        "lat": 52.40692,
        "lng": 16.92993
    },
    {
        "name": "Torino",
        "lat": 45.0677551,
        "lng": 7.6824892
    },
    {
        "name": "Madrid",
        "lat": 40.416782,
        "lng": -3.703507
    },
    {
        "name": "Copenaghen",
        "lat": 55.6867243,
        "lng": 12.5700724
    },
    {
        "name": "Milano",
        "lat": 45.4641943,
        "lng": 9.1896346
    },
    {
        "name": "Varsavia",
        "lat": 52.2319581,
        "lng": 21.0067249
    },
    {
        "name": "Bologna",
        "lat": 44.4938203,
        "lng": 11.3426327
    },
    {
        "name": "Lione",
        "lat": 45.76405102974706,
        "lng": 4.833063235632506
    },
    {
        "name": "Genova",
        "lat": 44.40726,
        "lng": 8.9338624
    },
    {
        "name": "Venezia",
        "lat": 45.4371908,
        "lng": 12.3345898
    },
    {
        "name": "Amsterdam",
        "lat": 52.3730796,
        "lng": 4.8924534
    },
    {
        "name": "Atene",
        "lat": 37.98474177644545,
        "lng": 23.728382235448223
    },
    {
        "name": "Londra",
        "lat": 51.51143535674791,
        "lng": -0.12426757868749967
    },
    {
        "name": "Firenze",
        "lat": 43.7697955,
        "lng": 11.2556404
    },
    {
        "name": "Napoli",
        "lat": 40.8358846,
        "lng": 14.2487679
    },
    {
        "name": "Roma",
        "lat": 41.8933203,
        "lng": 12.4829321
    },
    {
        "name": "Vienna",
        "lat": 48.2083537,
        "lng": 16.3725042
    },
    {
        "name": "Bruxelles",
        "lat": 50.8467372,
        "lng": 4.352493
    },
    {
        "name": "Oslo",
        "lat": 59.9133301,
        "lng": 10.7389701
    },
    {
        "name": "Lisbona",
        "lat": 38.7077507,
        "lng": -9.1365919
    },
    {
        "name": "Monaco",
        "lat": 43.7311424,
        "lng": 7.4197576
    },
    {
        "name": "Stoccolma",
        "lat": 59.3293,
        "lng": 18.0686
    },
    {
        "name": "Rotterdam",
        "lat": 51.9244424,
        "lng": 4.47775
    },
    {
        "name": "Budapest",
        "lat": 47.4813896,
        "lng": 19.1460941
    },
    {
        "name": "Berlino",
        "lat": 52.5173885,
        "lng": 13.3951309
    },
    {
        "name": "Barcellona",
        "lat": 41.3825802,
        "lng": 2.177073
    },
    {
        "name": "Bari",
        "lat": 41.1257843,
        "lng": 16.8620293
    },
    {
        "name": "Amburgo",
        "lat": 53.5511,
        "lng": 9.9937
    },
    {
        "name": "Palermo",
        "lat": 38.1112268,
        "lng": 13.3524434
    },
    {
        "name": "Praga",
        "lat": 50.0850112,
        "lng": 14.4265172
    },
    {
        "name": "Siviglia",
        "lat": 37.3886,
        "lng": -5.9823
    },
    {
        "name": "Dublino",
        "lat": 53.3493795,
        "lng": -6.2605593
    },
    {
        "name": "Brema",
        "lat": 53.0758196,
        "lng": 8.8071646
    },
    {
        "name": "Parigi",
        "lat": 48.85656659502163,
        "lng": 2.348748153994261
    },
    {
        "name": "Zurigo",
        "lat": 47.3744489,
        "lng": 8.5410422
    },
    {
        "name": "Altamura",
        "lat": 40.8274,
        "lng": 16.5543
    },
    {
        "name": "Molfetta",
        "lat": 41.2005,
        "lng": 16.5974
    },
    {
        "name": "Bitonto",
        "lat": 41.1089,
        "lng": 16.6922
    },
    {
        "name": "Monopoli",
        "lat": 40.9537,
        "lng": 17.3011
    },
    {
        "name": "Corato",
        "lat": 41.1524,
        "lng": 16.4078
    },
    {
        "name": "Gravina in Puglia",
        "lat": 40.8194,
        "lng": 16.4197
    },
    {
        "name": "Modugno",
        "lat": 41.0868,
        "lng": 16.7777
    },
    {
        "name": "Gioia del Colle",
        "lat": 40.801,
        "lng": 16.9212
    },
    {
        "name": "Terlizzi",
        "lat": 41.1296,
        "lng": 16.5464
    },
    {
        "name": "Conversano",
        "lat": 40.9648,
        "lng": 17.1157
    },
    {
        "name": "Noicattaro",
        "lat": 41.0356,
        "lng": 16.9912
    },
    {
        "name": "Triggiano",
        "lat": 41.0641,
        "lng": 16.9266
    },
    {
        "name": "Putignano",
        "lat": 40.8581,
        "lng": 17.1222
    },
    {
        "name": "Santeramo in Colle",
        "lat": 40.7929,
        "lng": 16.7572
    },
    {
        "name": "Ruvo di Puglia",
        "lat": 41.1164,
        "lng": 16.4889
    },
    {
        "name": "Mola di Bari",
        "lat": 41.062,
        "lng": 17.0847
    },
    {
        "name": "Palo del Colle",
        "lat": 41.0554,
        "lng": 16.7049
    },
    {
        "name": "Acquaviva delle Fonti",
        "lat": 40.8974,
        "lng": 16.8432
    },
    {
        "name": "Castellana Grotte",
        "lat": 40.8826,
        "lng": 17.1687
    },
    {
        "name": "Casamassima",
        "lat": 40.9556,
        "lng": 16.9175
    },
    {
        "name": "Giovinazzo",
        "lat": 41.1868,
        "lng": 16.67
    },
    {
        "name": "Rutigliano",
        "lat": 40.9996,
        "lng": 17.0058
    },
    {
        "name": "Noci",
        "lat": 40.7942,
        "lng": 17.1278
    },
    {
        "name": "Polignano a Mare",
        "lat": 40.9959,
        "lng": 17.2232
    },
    {
        "name": "Valenzano",
        "lat": 41.0449,
        "lng": 16.8805
    },
    {
        "name": "Adelfia",
        "lat": 41.004,
        "lng": 16.8643
    },
    {
        "name": "Cassano delle Murge",
        "lat": 40.8939,
        "lng": 16.7691
    },
    {
        "name": "Capurso",
        "lat": 41.044,
        "lng": 16.9237
    },
    {
        "name": "Locorotondo",
        "lat": 40.7537,
        "lng": 17.3266
    },
    {
        "name": "Turi",
        "lat": 40.9161,
        "lng": 17.0225
    },
    {
        "name": "Grumo Appula",
        "lat": 41.0085,
        "lng": 16.7096
    },
    {
        "name": "Bitetto",
        "lat": 41.0414,
        "lng": 16.7484
    },
    {
        "name": "Bitritto",
        "lat": 41.0283,
        "lng": 16.8491
    },
    {
        "name": "Alberobello",
        "lat": 40.7849,
        "lng": 17.2369
    },
    {
        "name": "Sannicandro di Bari",
        "lat": 41.0001,
        "lng": 16.7942
    },
    {
        "name": "Toritto",
        "lat": 40.9768,
        "lng": 16.6775
    },
    {
        "name": "Sammichele di Bari",
        "lat": 40.8882,
        "lng": 16.9598
    },
    {
        "name": "Cellamare",
        "lat": 41.027,
        "lng": 16.9525
    },
    {
        "name": "Binetto",
        "lat": 41.0148,
        "lng": 16.7177
    },
    {
        "name": "Poggiorsini",
        "lat": 40.9171,
        "lng": 16.2701
    },
    {
        "name": "Matera",
        "lat": 40.6663,
        "lng": 16.6043
    },
    {
        "name": "Fasano",
        "lat": 40.8388,
        "lng": 17.3594
    },
    {
        "name": "Martina Franca",
        "lat": 40.701,
        "lng": 17.3348
    },
    {
        "name": "Taranto",
        "lat": 40.4644,
        "lng": 17.247
    },
    {
        "name": "Brindisi",
        "lat": 40.6326,
        "lng": 17.9419
    },
    {
        "name": "Lecce",
        "lat": 40.3516,
        "lng": 18.175
    }
]
